<?xml version="1.0" encoding="UTF-8"?>
<kml xmlns="http://www.opengis.net/kml/2.2" xmlns:gx="http://www.google.com/kml/ext/2.2" xmlns:kml="http://www.opengis.net/kml/2.2" xmlns:atom="http://www.w3.org/2005/Atom">
<Folder>
	<name>SCM 2022</name>
	<open>1</open>
	<Placemark>
		<name>DEG_DIE_100</name>
		<Point>
			<coordinates>-76.24447000000001,42.55602,0</coordinates>
		</Point>
	</Placemark>
	<Placemark>
		<name>DEG_DIE_ERSWC</name>
		<Point>
			<coordinates>-76.12806,42.63469,0</coordinates>
		</Point>
	</Placemark>
	<Placemark>
		<name>DEG_DIE_SH</name>
		<Point>
			<coordinates>-76.08288,42.5713,0</coordinates>
		</Point>
	</Placemark>
	<Placemark>
		<name>DEG_EVA_PGREEN</name>
		<Point>
			<coordinates>-76.16202,42.51512,0</coordinates>
		</Point>
	</Placemark>
	<Placemark>
		<name>DEG_FES_OVO4</name>
		<Point>
			<coordinates>-76.29781,42.83983,0</coordinates>
		</Point>
	</Placemark>
	<Placemark>
		<name>DEG_FOU_ELM</name>
		<Point>
			<coordinates>-76.28019999999999,42.58639,0</coordinates>
		</Point>
	</Placemark>
	<Placemark>
		<name>DEG_HAI_ACROSSROAD</name>
		<Point>
			<coordinates>-76.27766,42.55716,0</coordinates>
		</Point>
	</Placemark>
	<Placemark>
		<name>DEG_MCM_CH</name>
		<Point>
			<coordinates>-76.20354,42.642,0</coordinates>
		</Point>
	</Placemark>
	<Placemark>
		<name>DEG_MCM_W7</name>
		<Point>
			<coordinates>-76.23137,42.70051,0</coordinates>
		</Point>
	</Placemark>
	<Placemark>
		<name>DEG_STR_1</name>
		<Point>
			<coordinates>-76.08362,42.70534,0</coordinates>
		</Point>
	</Placemark>
	<Placemark>
		<name>EPN_TRIAL</name>
		<Point>
			<coordinates>-74.0858832,41.762379,0</coordinates>
		</Point>
	</Placemark>
	<Placemark>
		<name>GAB_ALL</name>
		<Point>
			<coordinates>-73.68089000000001,42.92364,0</coordinates>
		</Point>
	</Placemark>
	<Placemark>
		<name>GAB_DEL</name>
		<Point>
			<coordinates>-73.64027,42.84021,0</coordinates>
		</Point>
	</Placemark>
	<Placemark>
		<name>GAB_ELL</name>
		<Point>
			<coordinates>-73.73445,42.45262,0</coordinates>
		</Point>
	</Placemark>
	<Placemark>
		<name>GAB_HER</name>
		<Point>
			<coordinates>-73.58208999999999,42.68417,0</coordinates>
		</Point>
	</Placemark>
	<Placemark>
		<name>GAB_JON</name>
		<Point>
			<coordinates>-73.973843,42.2253378,0</coordinates>
		</Point>
	</Placemark>
	<Placemark>
		<name>GAB_KUK</name>
		<Point>
			<coordinates>-73.81201,42.06082,0</coordinates>
		</Point>
	</Placemark>
	<Placemark>
		<name>GAB_OOM</name>
		<Point>
			<coordinates>-73.67534000000001,42.45754,0</coordinates>
		</Point>
	</Placemark>
	<Placemark>
		<name>GAB_PET</name>
		<Point>
			<coordinates>-73.99218,42.72436,0</coordinates>
		</Point>
	</Placemark>
	<Placemark>
		<name>GAB_STA_1</name>
		<Point>
			<coordinates>-73.82380000000001,42.53148,0</coordinates>
		</Point>
	</Placemark>
	<Placemark>
		<name>GAB_STO</name>
		<Point>
			<coordinates>-73.79716999999999,42.11997,0</coordinates>
		</Point>
	</Placemark>
	<Placemark>
		<name>GORHAM</name>
		<Point>
			<coordinates>-77.141098,42.785364,0</coordinates>
		</Point>
	</Placemark>
	<Placemark>
		<name>MIL_CHA</name>
		<Point>
			<coordinates>-75.458889,43.044444,0</coordinates>
		</Point>
	</Placemark>
	<Placemark>
		<name>MIL_MCC</name>
		<Point>
			<coordinates>-75.361389,42.993333,0</coordinates>
		</Point>
	</Placemark>
	<Placemark>
		<name>MIL_YOD</name>
		<Point>
			<coordinates>-75.525278,42.986944,0</coordinates>
		</Point>
	</Placemark>
	<Placemark>
		<name>MUL_LET</name>
		<Point>
			<coordinates>-77.70315530000001,42.9403986,0</coordinates>
		</Point>
	</Placemark>
	<Placemark>
		<name>ONE_ADO_1</name>
		<Point>
			<coordinates>-74.94540972999999,44.63986555,0</coordinates>
		</Point>
	</Placemark>
	<Placemark>
		<name>ONE_AKI_1</name>
		<Point>
			<coordinates>-75.30916136,44.66992368,0</coordinates>
		</Point>
	</Placemark>
	<Placemark>
		<name>ONE_CHA_1</name>
		<Point>
			<coordinates>-75.44822096,44.57920778,0</coordinates>
		</Point>
	</Placemark>
	<Placemark>
		<name>ONE_HUN_1</name>
		<Point>
			<coordinates>-75.03363444999999,44.56261327,0</coordinates>
		</Point>
	</Placemark>
	<Placemark>
		<name>ONE_MCK_1</name>
		<Point>
			<coordinates>-75.19768297,44.85307441,0</coordinates>
		</Point>
	</Placemark>
	<Placemark>
		<name>ONE_OAK_1</name>
		<Point>
			<coordinates>-74.54660541,44.94110918,0</coordinates>
		</Point>
	</Placemark>
	<Placemark>
		<name>ONE_ORT_1</name>
		<Point>
			<coordinates>-74.83228943,44.95954032,0</coordinates>
		</Point>
	</Placemark>
	<Placemark>
		<name>ONE_STA_1</name>
		<Point>
			<coordinates>-74.66066331,44.77108901,0</coordinates>
		</Point>
	</Placemark>
	<Placemark>
		<name>PAN_LET</name>
		<Point>
			<coordinates>-78.04370659999999,42.6198187,0</coordinates>
		</Point>
	</Placemark>
	<Placemark>
		<name>POV_DUN</name>
		<Point>
			<coordinates>-76.39898410000001,42.3873813,0</coordinates>
		</Point>
	</Placemark>
	<Placemark>
		<name>POW_LET</name>
		<Point>
			<coordinates>-77.78118000000001,42.618402,0</coordinates>
		</Point>
	</Placemark>
	<Placemark>
		<name>SEA_HOO_1</name>
		<Point>
			<coordinates>-77.01625,42.625396,0</coordinates>
		</Point>
	</Placemark>
	<Placemark>
		<name>SMI_CAN</name>
		<Point>
			<coordinates>-75.05277700000001,42.876864,0</coordinates>
		</Point>
	</Placemark>
	<Placemark>
		<name>SMI_CRO</name>
		<Point>
			<coordinates>-74.669392,42.843286,0</coordinates>
		</Point>
	</Placemark>
	<Placemark>
		<name>SMI_DOU</name>
		<Point>
			<coordinates>-74.837951,43.049569,0</coordinates>
		</Point>
	</Placemark>
	<Placemark>
		<name>SMI_DUR</name>
		<Point>
			<coordinates>-75.93668700000001,43.064027,0</coordinates>
		</Point>
	</Placemark>
	<Placemark>
		<name>SMI_HOF</name>
		<Point>
			<coordinates>-75.709457,42.353305,0</coordinates>
		</Point>
	</Placemark>
	<Placemark>
		<name>SMI_HOL</name>
		<Point>
			<coordinates>-74.27790899999999,42.904205,0</coordinates>
		</Point>
	</Placemark>
	<Placemark>
		<name>SMI_JOH_1</name>
		<Point>
			<coordinates>-75.590703,43.003637,0</coordinates>
		</Point>
	</Placemark>
	<Placemark>
		<name>SMI_JOH_2</name>
		<Point>
			<coordinates>-75.67687599999999,43.075096,0</coordinates>
		</Point>
	</Placemark>
	<Placemark>
		<name>SMI_KEL</name>
		<Point>
			<coordinates>-74.659539,42.959892,0</coordinates>
		</Point>
	</Placemark>
	<Placemark>
		<name>SMI_MCC</name>
		<Point>
			<coordinates>-74.84857,43.118349,0</coordinates>
		</Point>
	</Placemark>
	<Placemark>
		<name>STA_CRA</name>
		<Point>
			<coordinates>-77.270544,43.188409,0</coordinates>
		</Point>
	</Placemark>
	<Placemark>
		<name>STA_LOT</name>
		<Point>
			<coordinates>-76.805378,42.880592,0</coordinates>
		</Point>
	</Placemark>
	<Placemark>
		<name>STA_PAD</name>
		<Point>
			<coordinates>-77.34020599999999,43.030113,0</coordinates>
		</Point>
	</Placemark>
	<Placemark>
		<name>WICKHAM</name>
		<Point>
			<coordinates>-77.11795100000001,42.856245,0</coordinates>
		</Point>
	</Placemark>
	<Placemark>
		<name>WIS_BRU</name>
		<Point>
			<coordinates>-74.08269,41.808489,0</coordinates>
		</Point>
	</Placemark>
	<Placemark>
		<name>WIS_COO_1</name>
		<Point>
			<coordinates>-73.606481,41.843114,0</coordinates>
		</Point>
	</Placemark>
	<Placemark>
		<name>WIS_COO_2</name>
		<Point>
			<coordinates>-73.61421,41.878961,0</coordinates>
		</Point>
	</Placemark>
	<Placemark>
		<name>WIS_KEN</name>
		<Point>
			<coordinates>-73.95665099999999,41.665776,0</coordinates>
		</Point>
	</Placemark>
	<Placemark>
		<name>WIS_WAL</name>
		<Point>
			<coordinates>-74.120294,41.872026,0</coordinates>
		</Point>
	</Placemark>
	<Placemark>
		<name>ZUE_PED</name>
		<Point>
			<coordinates>-77.10722199999999,42.874722,0</coordinates>
		</Point>
	</Placemark>
	<Placemark>
		<name>ZUE_REE</name>
		<Point>
			<coordinates>-76.983611,42.781389,0</coordinates>
		</Point>
	</Placemark>
</Folder>
</kml>
